{"status":"ok", "data":[{"identifier":"al-bascha-bistro","name":"Al Bascha Bistro","rating":false,"submitter":"veggiefeldkueche","address":"Bornaische Stra\u00dfe 24 ","city":"Leipzig","country":"Deutschland","latitude":"51.308089","longitude":"12.3772442"},{"identifier":"annas","name":"Anna\\'s","rating":4,"submitter":"yetzt","address":"K\u00f6nneritzstra\u00dfe 49","city":"Leipzig","country":"Deutschland","latitude":"51.324282954015","longitude":"12.3440837860107"},{"identifier":"asia-hung-hauptbahnhof","name":"Asia Hung (Hauptbahnhof)","rating":2,"submitter":"neokarmapolizist","address":"Willy-Brandt-Platz 7","city":"Leipzig","country":"Deutschland","latitude":"51.3445088822138","longitude":"12.3812162876129"},{"identifier":"asia-supermarkt-am-neumarkt","name":"Asia Supermarkt am Neumarkt","rating":4,"submitter":"yetzt","address":"Neumarkt 26","city":"Leipzig","country":"Deutschland","latitude":"51.338346","longitude":"12.376281"},{"identifier":"atacolypse-2","name":"ATACOLYPSE 2","rating":5,"submitter":"blackstar","address":"Wolfgang-Heinze-Str. 15","city":"Leipzig","country":"Deutschland","latitude":"51.30861","longitude":"12.3732993"},{"identifier":"atacolypse-the-vegan-tex-mex-snack-bar","name":"ATACOLYPSE: The Vegan Tex-Mex Snack Bar","rating":5,"submitter":"blackstar","address":"Wolfgang Heinze Str. 38","city":"Leipzig","country":"Deutschland","latitude":"51.3060094","longitude":"12.3735252"},{"identifier":"atari","name":"Atari","rating":4,"submitter":"muellersihre","address":"Kippenbergstra\u00dfe 20","city":"Leipzig","country":"Deutschland","latitude":"51.3360184","longitude":"12.4059671"},{"identifier":"b12","name":"B12","rating":3,"submitter":"yetzt","address":"Braustra\u00dfe 20","city":"Leipzig","country":"Deutschland","latitude":"51.326747","longitude":"12.372217"},{"identifier":"baecker-drescher","name":"B\u00e4cker Drescher","rating":3,"submitter":"phobos","address":"Gustav-Adolf-Stra\u00dfe 42","city":"Leipzig","country":"Deutschland","latitude":"51.343496","longitude":"12.359917"},{"identifier":"bagelbrothers","name":"Bagelbrothers","rating":2,"submitter":"nokrauts","address":"Nikolaistra\u00dfe 42","city":"Leipzig","country":"Deutschland","latitude":"51.3427838527319","longitude":"12.3785018920898"},{"identifier":"bavarian-dueruem","name":"Bavarian D\u00fcr\u00fcm","rating":false,"submitter":"veggiefeldkueche","address":"Pfeffinger Stra\u00dfe 18","city":"Leipzig","country":"Deutschland","latitude":"51.307695","longitude":"12.3785725"},{"identifier":"bio-eisspezialitaeten","name":"Bio-Eisspezialit\u00e4ten","rating":4,"submitter":"neokarmapolizist","address":"K\u00f6nneritzstra\u00dfe 21","city":"Leipzig","country":"Deutschland","latitude":"51.327492","longitude":"12.34566"},{"identifier":"bio-mare","name":"Bio Mare","rating":4,"submitter":"yetzt","address":"Simildenstra\u00dfe 20","city":"Leipzig","country":"Deutschland","latitude":"51.339762","longitude":"12.371358"},{"identifier":"biokarawane","name":"Biokarawane","rating":3,"submitter":"naraesk","address":"Gr\u00fcnewaldstra\u00dfe 5","city":"Leipzig","country":"Deutschland","latitude":"51.3348632","longitude":"12.3786633"},{"identifier":"biokiste","name":"Biokiste","rating":5,"submitter":"mondamo","address":"Wei\u00dfenfelserstr 14","city":"Leipzig","country":"Deutschland","latitude":"51.330289","longitude":"12.340321"},{"identifier":"bistro-1001-nacht","name":"Bistro 1001 Nacht","rating":3,"submitter":"yetzt","address":"Industriestra\u00dfe 27","city":"Leipzig","country":"Deutschland","latitude":"51.3253020383486","longitude":"12.341423034668"},{"identifier":"brakers-frueh-back-spaet-shop","name":"fr\u00fch brakers sp\u00e4t backshop","rating":5,"submitter":"madlen","address":"bornaische stra\u00dfe 40","city":"leipzig","country":"Deutschland","latitude":"51.30772","longitude":"12.37834"},{"identifier":"brakers-go-2-eisdiele","name":"Braker\u2019s Go 2 - Eisdiele","rating":false,"submitter":"neokarmapolizist","address":"Zwickauer Str. 71","city":"Leipzig","country":"Deutschland","latitude":"51.3091388","longitude":"12.3964754"},{"identifier":"cafe-puschkin","name":"Caf\u00e9 Puschkin","rating":2,"submitter":"yetzt","address":"Karl-Liebknecht-Stra\u00dfe 47","city":"Leipzig","country":"Deutschland","latitude":"51.32072","longitude":"12.373386"},{"identifier":"cafe-rico","name":"Caf\u00e9 Rico","rating":false,"submitter":"neokarmapolizist","address":"Lauchst\u00e4dter Stra\u00dfe 22","city":"Leipzig","country":"Deutschland","latitude":"51.329163849526","longitude":"12.3352432250977"},{"identifier":"chinabrenner","name":"Chinabrenner","rating":false,"submitter":"elaerdbeer","address":"Gie\u00dferstra\u00dfe 18","city":"Leipzig","country":"Deutschland","latitude":"51.327584839165","longitude":"12.3273146152496"},{"identifier":"coffito-coffeeanawrap","name":"Coffito - Coffee\u00b4n\u00b4Wrap","rating":false,"submitter":"muellersihre","address":"Ferdinand-Rhode-Str. 3B","city":"Leipzig","country":"Deutschland","latitude":"51.3325914","longitude":"12.3654595"},{"identifier":"conne-island","name":"Conne Island","rating":3,"submitter":"yetzt","address":"Koburger Stra\u00dfe 3","city":"Leipzig","country":"Deutschland","latitude":"51.303123","longitude":"12.374111"},{"identifier":"curry-und-co-leipzig","name":"Curry & Co Leipzig","rating":4,"submitter":"naraesk","address":"Br\u00fchl 4","city":"Leipzig","country":"Deutschland","latitude":"51.3430893","longitude":"12.373438"},{"identifier":"deli","name":"deli","rating":5,"submitter":"blackstar","address":"Wolfgang Heinze Stra\u00dfe 12a","city":"Leipzig","country":"Deutschland","latitude":"51.308502","longitude":"12.3731969"},{"identifier":"die-nato","name":"die naTo","rating":4,"submitter":"yetzt","address":"Karl-Liebknecht-Stra\u00dfe 46","city":"Leipzig","country":"Deutschland","latitude":"51.325247","longitude":"12.373534"},{"identifier":"duo-sandwiches-oeko-inkl-veggie","name":"DUO sandwichesandcoffee","rating":2,"submitter":"mondamo","address":"Hauptbahnhof Querbahnsteig ","city":"Leipzig","country":"Deutschland","latitude":"51.345073155591","longitude":"12.3799180984497"},{"identifier":"eiscafe-san-remo","name":"Eiscaf\u00e9 San Remo","rating":2,"submitter":"yetzt","address":"Nikolaistra\u00dfe 1","city":"Leipzig","country":"Deutschland","latitude":"51.339948","longitude":"12.377952"},{"identifier":"eisdiele-brakers-go","name":"Braker\u2019s Go - Eisdiele","rating":5,"submitter":"apple","address":"Bornaische Stra\u00dfe 42","city":"Leipzig","country":"Deutschland","latitude":"51.307724","longitude":"12.37872"},{"identifier":"el-amir","name":"El Amir","rating":4,"submitter":"yetzt","address":"Karl-Liebknecht-Stra\u00dfe 59","city":"Leipzig","country":"Deutschland","latitude":"51.325211","longitude":"12.373756"},{"identifier":"foodcoop-plagwitz","name":"FoodCoop Plagwitz","rating":1,"submitter":"yetzt","address":"Gie\u00dferstra\u00dfe 32a","city":"Leipzig","country":"Deutschland","latitude":"51.325865206818","longitude":"12.3267459869385"},{"identifier":"goodies-leipzig","name":"Goodies Leipzig","rating":5,"submitter":"goodies","address":"Nikolaistrasse 53","city":"Leipzig","country":"Germany","latitude":"51.3425472306267","longitude":"12.3781126527786"},{"identifier":"hailong","name":"HAILONG","rating":4,"submitter":"blackstar","address":"Bornaische Stra\u00dfe 13","city":"Leipzig","country":"Deutschland","latitude":"51.3083604","longitude":"12.3769688"},{"identifier":"happy-hour","name":"Happy Hour","rating":5,"submitter":"blackstar","address":"Bornaische Stra\u00dfe 23","city":"Leipzig","country":"Deutschland","latitude":"51.3079817","longitude":"12.3783337"},{"identifier":"hausmark-schaenke","name":"Hausmark Sch\u00e4nke","rating":5,"submitter":"neokarmapolizist","address":"Georg-Schwarz-Stra\u00dfe 10","city":"Leipzig","country":"Deutschland","latitude":"51.3384746","longitude":"12.3274607"},{"identifier":"hit","name":"HIT","rating":3,"submitter":"animalliberation","address":"Stra\u00dfe des 18. Oktober 44","city":"Leipzig","country":"Deutschland","latitude":"51.3191722","longitude":"12.3993286"},{"identifier":"holy-soup","name":"HOLY SOUP [S\u00fcdvorstadt]","rating":5,"submitter":"blackstar","address":"Karl-Liebknecht-Stra\u00dfe 85","city":"Leipzig","country":"Deutschland","latitude":"51.3225922","longitude":"12.3736899"},{"identifier":"holy-soup-plagwitz","name":"HOLY SOUP [Plagwitz]","rating":5,"submitter":"blackstar","address":"Zschochersche Stra\u00dfe 33 A","city":"Leipzig","country":"Deutschland","latitude":"51.331275","longitude":"12.3382199"},{"identifier":"india-gate","name":"India Gate","rating":2,"submitter":"phobos","address":"Nikolaistra\u00dfe 10","city":"Leipzig","country":"Deutschland","latitude":"51.3407196297572","longitude":"12.3781156539917"},{"identifier":"istanbul-burger-und-kebap-haus","name":"Istanbul Burger & Kebap Haus","rating":3,"submitter":"blackstar","address":"Karl-Liebknecht-Stra\u00dfe 65","city":"Leipzig","country":"Deutschland","latitude":"51.3246209","longitude":"12.3737447"},{"identifier":"karl-heinespaeti","name":"Karl-Heinesp\u00e4ti","rating":2,"submitter":"yetzt","address":"Karl-Heine-Stra\u00dfe 72","city":"Leipzig","country":"Deutschland","latitude":"51.3307188959965","longitude":"12.3310482501984"},{"identifier":"karlhelga","name":"Karlhelga","rating":5,"submitter":"yetzt","address":"Klingenstra\u00dfe 16-18","city":"Leipzig","country":"Deutschland","latitude":"51.3242728971489","longitude":"12.324326634407"},{"identifier":"klee-naturkost","name":"Klee Naturkost","rating":5,"submitter":"yetzt","address":"Friedrich-Ebert-Stra\u00dfe 33","city":"Leipzig","country":"Deutschland","latitude":"51.337690147196","longitude":"12.3637390136719"},{"identifier":"kombuese-68","name":"Komb\u00fcse 68","rating":4,"submitter":"kleingeist","address":"Karl-Heine-Stra\u00dfe 68","city":"Leipzig","country":"Deutschland","latitude":"51.3311","longitude":"12.33164"},{"identifier":"kostbar-naturkost","name":"Kostbar Naturkost","rating":5,"submitter":"apple","address":"Karl-Heine-Stra\u00dfe 77","city":"Leipzig","country":"Deutschland","latitude":"51.3309179935266","longitude":"12.3324912786484"},{"identifier":"kowalski","name":"Kowalski","rating":4,"submitter":"rabauki","address":"Ferdinand-Rhode-Stra\u00dfe 12","city":"Leipzig","country":"Deutschland","latitude":"51.3313918","longitude":"12.3659265"},{"identifier":"la-pita","name":"La Pita","rating":4,"submitter":"phobos","address":"Markt 17","city":"Leipzig","country":"Deutschland","latitude":"51.3397142926974","longitude":"12.3747682571411"},{"identifier":"la-tortita-verwegen-vegane-sueszspeisen","name":"La Tortita - verwegen vegane S\u00fc\u00dfspeisen","rating":5,"submitter":"latortita","address":"Hildegardstra\u00dfe 49","city":"Leipzig","country":"Deutschland","latitude":"51.3396955","longitude":"12.3730747"},{"identifier":"lazy-dog","name":"Lazy Dog","rating":5,"submitter":"yetzt","address":"Hermannstr. 2","city":"Leipzig","country":"Deutschland","latitude":"51.3057167","longitude":"12.3738593"},{"identifier":"le-cupcakes","name":"L.E. Cupcakes","rating":5,"submitter":"un3ven","address":"Simildenstr. 7","city":"Leipzig","country":"Deutschland","latitude":"51.3077451","longitude":"12.3722266"},{"identifier":"le-cygne","name":"Le Cygne","rating":5,"submitter":"blackstar","address":"Herderstra\u00dfe 1","city":"Leipzig","country":"Deutschland","latitude":"51.3077","longitude":"12.3737"},{"identifier":"lebensart-naturkost","name":"Lebensart Naturkost","rating":3,"submitter":"yetzt","address":"K\u00f6nneritzstra\u00dfe 49","city":"Leipzig","country":"Deutschland","latitude":"51.3243902271165","longitude":"12.344126701355"},{"identifier":"lebensgarten","name":"Lebensgarten","rating":5,"submitter":"yetzt","address":"K\u00f6rnerstra\u00dfe 41","city":"Leipzig","country":"Deutschland","latitude":"51.325087","longitude":"12.377494"},{"identifier":"libelle","name":"Libelle","rating":5,"submitter":"yetzt","address":"Kolonnadenstra\u00dfe 19","city":"Leipzig","country":"Deutschland","latitude":"51.337982","longitude":"12.365694"},{"identifier":"lukas-baecker","name":"Lukas B\u00e4cker","rating":false,"submitter":"tiptob","address":"Hauptbahnhof ","city":"Leipzig","country":"Deutschland","latitude":"51.3454645230242","longitude":"12.3821067810059"},{"identifier":"macis-restaurantcafebiosupermarkt","name":"Macis Restaurant\/Caf\u00e9\/Biosupermarkt","rating":4,"submitter":"morningsun","address":"Markgrafenstra\u00dfe 10","city":"Leipzig","country":"Deutschland","latitude":"51.3377103","longitude":"12.3714486"},{"identifier":"mahl-zeit-vegetarisches-restaurant-und-cafe","name":"Mahl Zeit","rating":5,"submitter":"neokarmapolizist","address":"Oeserstra\u00dfe 20","city":"Leipzig","country":"Deutschland","latitude":"51.3198845408154","longitude":"12.3399209976196"},{"identifier":"manoa-frozen-yoghurt","name":"Manoa Frozen Yoghurt","rating":4,"submitter":"ballspielvegan1909","address":"Petersstra\u00dfe 36-44","city":"Leipzig","country":"Deutschland","latitude":"51.3379399","longitude":"12.37458"},{"identifier":"maza-pita","name":"Tasty Fresh","rating":4,"submitter":"hfb","address":"Neumarkt 9","city":"Leipzig","country":"Deutschland","latitude":"51.3382202094568","longitude":"12.3773860931396"},{"identifier":"maza-pita-2","name":"Maza Pita","rating":5,"submitter":"neokarmapolizist","address":"K\u00f6nneritzstra\u00dfe 49","city":"Leipzig","country":"Deutschland","latitude":"51.3242293173702","longitude":"12.344126701355"},{"identifier":"meine-bioproduktede","name":"meine-bioprodukte.de","rating":false,"submitter":"line1910","address":"Christian-Schmid-Stra\u00dfe 3","city":"Leipzig","country":"Deutschland","latitude":"51.33677","longitude":"12.48938"},{"identifier":"mekong","name":"Mekong","rating":3,"submitter":"yetzt","address":"Ritterstra\u00dfe 44-48","city":"Leipzig","country":"Deutschland","latitude":"51.34181","longitude":"12.379609"},{"identifier":"mensa-am-park","name":"Mensa am Park","rating":4,"submitter":"hfb","address":"Universit\u00e4tsstra\u00dfe 5","city":"Leipzig","country":"Deutschland","latitude":"51.3374700775613","longitude":"12.3782444000244"},{"identifier":"mio-restaurante","name":"Mio Restaurante","rating":4,"submitter":"madmary","address":"Beethovenstra\u00dfe 21","city":"Leipzig","country":"Germany","latitude":"51.3320043","longitude":"12.3665102"},{"identifier":"mokkaflip-kaffeebar","name":"Mokkaflip - Kaffeebar","rating":5,"submitter":"spule","address":"Universit\u00e4tsstra\u00dfe 16","city":"Leipzig","country":"Deutschland","latitude":"51.338383","longitude":"12.377596"},{"identifier":"mr-moto-sushi-bar","name":"Mr. Moto Sushi Bar","rating":3,"submitter":"apple","address":"Grosse Fleischergasse 21","city":"Leipzig","country":"Deutschland","latitude":"51.341503","longitude":"12.372074"},{"identifier":"naehmaschine-und-regenschirm","name":"N\u00e4hmaschine und Regenschirm","rating":5,"submitter":"hfb","address":"Mariannenstra\u00dfe 89","city":"Leipzig","country":"Deutschland","latitude":"51.3468362","longitude":"12.4085422"},{"identifier":"natur-backstube","name":"Natur - Backstube [S\u00fcdvorstadt]","rating":4,"submitter":"paula","address":"Karl-Liebknecht-Stra\u00dfe 108","city":"Leipzig","country":"Deutschland","latitude":"51.3169533","longitude":"12.3732727"},{"identifier":"natur-backstube-connewitz","name":"Naturbackstube [Connewitz]","rating":5,"submitter":"blackstar","address":"Wolfgang-Heinze-Stra\u00dfe 12","city":"Leipzig","country":"Deutschland","latitude":"51.3088494","longitude":"12.3729795"},{"identifier":"natur-und-fein","name":"Natur und Fein","rating":4,"submitter":"schneck","address":"Waldstra\u00dfe 23","city":"Leipzig","country":"Deutschland","latitude":"51.344406","longitude":"12.357859"},{"identifier":"naturaum","name":"NatuRaum","rating":5,"submitter":"yetzt","address":"Pittlerstra\u00dfe 26","city":"Leipzig","country":"Deutschland","latitude":"51.378601","longitude":"12.314543"},{"identifier":"naturbackstube-","name":"Naturbackstube","rating":false,"submitter":"naturbackstube","address":"Wolfgang-Heinze-Stra\u00dfe 12","city":"Leipzig","country":"Deutschland","latitude":"51.3089648","longitude":"12.3728759"},{"identifier":"naturkostkontor-schreiter","name":"Naturkostkontor Schreiter","rating":3,"submitter":"schneck","address":"Karl-Liebknecht-Stra\u00dfe 30-32","city":"Leipzig","country":"Deutschland","latitude":"51.3277021606595","longitude":"12.3730731010437"},{"identifier":"naturkostladen-gohlis","name":"Naturkostladen Gohlis","rating":3,"submitter":"yetzt","address":"Gohliser Stra\u00dfe 18","city":"Leipzig","country":"Deutschland","latitude":"51.355347","longitude":"12.370594"},{"identifier":"naturparadies-strohsackpassage","name":"Naturparadies Strohsackpassage","rating":3,"submitter":"yetzt","address":"Nikolaistra\u00dfe 6-10","city":"Leipzig","country":"Deutschland","latitude":"51.341141864747","longitude":"12.3789525032043"},{"identifier":"neueroeffnung-zum-01032013-vegan-leben-","name":"Vegan Leben","rating":5,"submitter":"veganleben","address":"Kurt Eisner Str. 11","city":"Leipzig","country":"Deutschland","latitude":"51.3210167","longitude":"12.368015"},{"identifier":"nix-tonne","name":"NIX TONNE.","rating":false,"submitter":"nixtonne","address":"Bornaische Str. 50","city":"Leipzig","country":"Deutschland","latitude":"51.3071049574921","longitude":"12.3798508325409"},{"identifier":"orient-shop-karli-97","name":"La Mia Pizza","rating":5,"submitter":"lalibertad","address":"Karl-Liebknecht-Stra\u00dfe 96","city":"Leipzig","country":"Deutschland","latitude":"51.3181232","longitude":"12.3732264"},{"identifier":"pizza-lab","name":"Pizza LAB","rating":5,"submitter":"pizzalab","address":"Georg-Schwarz-Str 10","city":"LEIPZIG","country":"Deutschland","latitude":"51.3385646","longitude":"12.3274738"},{"identifier":"pizzeria-venezia","name":"Pizzeria Venezia","rating":5,"submitter":"kleingeist","address":"K\u00f6nneritzstra\u00dfe 107","city":"Leipzig","country":"Deutschland","latitude":"51.3187843","longitude":"12.3411522"},{"identifier":"plaque","name":"Plaque","rating":5,"submitter":"yetzt","address":"Industriestra\u00dfe 97","city":"Leipzig","country":"Deutschland","latitude":"51.328189","longitude":"12.328908"},{"identifier":"reformhaus-blicke","name":"Reformhaus Blicke","rating":3,"submitter":"hfb","address":"Friedrich-Ebert-Stra\u00dfe 33","city":"Leipzig","country":"Deutschland","latitude":"51.3375125275138","longitude":"12.3635163903236"},{"identifier":"reformhaus-hauptbahnhof","name":"Reformhaus (Hauptbahnhof)","rating":4,"submitter":"cb0","address":"Willy-Brandt-Platz 5","city":"Leipzig","country":"Deutschland","latitude":"51.3441644175143","longitude":"12.3816347122192"},{"identifier":"restaurant-eden","name":"Restaurant Eden","rating":5,"submitter":"blackstar","address":"Karl-Liebknecht-Stra\u00dfe 112","city":"Leipzig","country":"Deutschland","latitude":"51.316498","longitude":"12.3731522"},{"identifier":"restaurant-eden-leipzig","name":"Restaurant Eden Leipzig","rating":false,"submitter":"pinkerella","address":"Karl-Liebknecht Strasse 112","city":"Leipzig","country":"Deutschland","latitude":"51.316498","longitude":"12.3731522"},{"identifier":"ristorante-don-giovanni","name":"Ristorante Don Giovanni","rating":3,"submitter":"phobos","address":"Schwartzestr. 1-3","city":"Leipzig","country":"Deutschland","latitude":"51.3152711177098","longitude":"12.3270678520203"},{"identifier":"ritag-naturprodukte-bioladen-gohlis","name":"RITAG Naturprodukte Bioladen Gohlis","rating":0,"submitter":"mondamo","address":"Breitenfelderstr. 34","city":"Leipzig","country":"Deutschland","latitude":"51.365334","longitude":"12.362176"},{"identifier":"safran-indisches-restaurant","name":"Safran - Indisches Restaurant","rating":4,"submitter":"lumpi","address":"K\u00f6rnerstr. 27","city":"Leipzig","country":"Deutschland","latitude":"51.3252642","longitude":"12.3739384"},{"identifier":"schnitzelculture","name":"Schnitzelculture","rating":1,"submitter":"schnitzelmeister","address":"Gro\u00dfe Fleischergasse 21","city":"Leipzig","country":"Deutschland","latitude":"51.341503","longitude":"12.372074"},{"identifier":"shady","name":"shady","rating":2,"submitter":"phobos","address":"K\u00f6rnerstra\u00dfe 2","city":"Leipzig","country":"Deutschland","latitude":"51.325468","longitude":"12.370165"},{"identifier":"shahia","name":"Shahia","rating":5,"submitter":"naraesk","address":"Karl-Liebknecht-Stra\u00dfe 96","city":"Leipzig","country":"Deutschland","latitude":"51.3181042","longitude":"12.3731919"},{"identifier":"similde","name":"Similde","rating":5,"submitter":"yetzt","address":"Simildenstra\u00dfe 9","city":"Leipzig","country":"Deutschland","latitude":"51.30776","longitude":"12.371388"},{"identifier":"sinfonie","name":"Sinfonie","rating":2,"submitter":"phobos","address":"Gottschedstra\u00dfe 15","city":"Leipzig","country":"Deutschland","latitude":"51.3411217584071","longitude":"12.3672258853912"},{"identifier":"skorbut","name":"skorbut","rating":5,"submitter":"hfb","address":"Dreilindenstra\u00dfe 1","city":"Leipzig","country":"Deutschland","latitude":"51.33651","longitude":"12.33621"},{"identifier":"soupbar-summarum","name":"Soupbar Summarum","rating":false,"submitter":"naraesk","address":"M\u00fcnzgasse 16","city":"Leipzig","country":"Deutschland","latitude":"51.33244","longitude":"12.37281"},{"identifier":"speisekammer","name":"Speisekammer","rating":5,"submitter":"yetzt","address":"Holbeinstra\u00dfe 19","city":"Leipzig","country":"Deutschland","latitude":"51.3263412128693","longitude":"12.3422062397003"},{"identifier":"spiesser-sataybarde","name":"SPIESSER Sataybar.de","rating":4,"submitter":"aydryll","address":"Karl-Liebknecht-Strasse 112","city":"Leipzig","country":"Deutschland","latitude":"51.31666","longitude":"12.37312"},{"identifier":"stern-des-suedens","name":"Stern des S\u00fcdens","rating":3,"submitter":"yetzt","address":"Karl-Liebknecht-Stra\u00dfe 102","city":"Leipzig","country":"Deutschland","latitude":"51.317531","longitude":"12.373274"},{"identifier":"stoe-16","name":"St\u00f6 16","rating":5,"submitter":"yetzt","address":"St\u00f6ckartstra\u00dfe 16","city":"Leipzig","country":"Deutschland","latitude":"51.308045","longitude":"12.377575"},{"identifier":"sublab","name":"sublab","rating":5,"submitter":"hfb","address":"Karl-Heine-Stra\u00dfe 92","city":"Leipzig","country":"Deutschland","latitude":"51.3303904166665","longitude":"12.3308658599854"},{"identifier":"suesz--salzig","name":"s\u00fc\u00df + salzig","rating":4,"submitter":"onestar86","address":"Merseburger Str 44","city":"Leipzig","country":"Deutschland","latitude":"51.3320864173033","longitude":"12.3329472541809"},{"identifier":"suesz-und-salzig","name":"s\u00fc\u00df und salzig","rating":4,"submitter":"kinggeorge","address":"Merseburger Str. 44","city":"Leipzig","country":"Deutschland","latitude":"51.3323174","longitude":"12.3328413"},{"identifier":"suppentempel","name":"Suppentempel","rating":false,"submitter":"suppentempel","address":"Zschochersche Str. 38","city":"Leipzig","country":"Deutschland","latitude":"51.3302854","longitude":"12.3372675"},{"identifier":"symbiose-bio-bar-und-restaurant","name":"Symbiose - Bio Bar und Restaurant","rating":5,"submitter":"naraesk","address":"Karl-Liebknecht-Stra\u00dfe 112","city":"Leipzig","country":"Deutschland","latitude":"51.3166941","longitude":"12.3731222"},{"identifier":"umaii","name":"Umaii","rating":false,"submitter":"klauskroete","address":"Klostergasse 7-9","city":"Leipzig","country":"Deutschland","latitude":"51.34065","longitude":"12.37294"},{"identifier":"umsonstladen-leipzig","name":"Umsonstladen Leipzig","rating":5,"submitter":"yetzt","address":"Gie\u00dferstra\u00dfe 16","city":"Leipzig","country":"Deutschland","latitude":"51.3279569148713","longitude":"12.3276901245117"},{"identifier":"unanova-vegane-mode","name":"unanova -vegane mode","rating":false,"submitter":"venusfusion","address":"k\u00f6nneritzstr. 43","city":"leipzig","country":"Deutschland","latitude":"51.3258276","longitude":"12.3450481"},{"identifier":"vapiano-leipzig","name":"Vapiano Leipzig","rating":false,"submitter":"pattchel","address":"Augustusplatz 11","city":"Leipzig","country":"Deutschland","latitude":"51.3390172460587","longitude":"12.37961769104"},{"identifier":"vegan-fanatics","name":"Vegan Fanatics","rating":false,"submitter":"blackstar","address":"Bornaische Stra\u00dfe 3","city":"Leipzig","country":"Deutschland","latitude":"51.309678","longitude":"12.374296"},{"identifier":"veggiefeldkueche","name":"Veggiefeldk\u00fcche","rating":5,"submitter":"blackstar","address":"Connewitzer Kreuz ","city":"Leipzig","country":"Deutschland","latitude":"51.3100335","longitude":"12.373116"},{"identifier":"veggiefeldkueche-connewitz-kreuz","name":"Veggiefeldk\u00fcche Connewitz Kreuz","rating":false,"submitter":"veggiefeldkueche","address":"Bornaische Stra\u00dfe ","city":"Leipzig","country":"Deutschland","latitude":"51.3094232054526","longitude":"12.3734378814697"},{"identifier":"vg-silo","name":"VG Silo","rating":2,"submitter":"yetzt","address":"Brockhausstra\u00dfe 47","city":"Leipzig","country":"Deutschland","latitude":"51.321564","longitude":"12.339749"},{"identifier":"viener-cafe","name":"Viener Caf\u00e9","rating":5,"submitter":"hfb","address":"Josephstra\u00dfe 12","city":"Leipzig","country":"Deutschland","latitude":"51.3352443","longitude":"12.3332048"},{"identifier":"volle-rolle","name":"Volle Rolle","rating":5,"submitter":"blackstar","address":"Zschochersche Stra\u00dfe 47","city":"Leipzig","country":"Deutschland","latitude":"51.3295998","longitude":"12.3371462"},{"identifier":"vood-kitchen","name":"Vood-Kitchen","rating":false,"submitter":"veggiefeldkueche","address":"Karl-Liebknecht-Stra\u00dfe 104","city":"Leipzig","country":"Deutschland","latitude":"51.3173003","longitude":"12.3731569"},{"identifier":"vreload","name":"Vleischerei","rating":5,"submitter":"schneck","address":"Zschochersche Stra\u00dfe 23","city":"Leipzig","country":"Deutschland","latitude":"51.3324411394456","longitude":"12.3390036821365"},{"identifier":"vvasabi","name":"VVasabi","rating":4,"submitter":"fieti","address":"Bornaische Stra\u00dfe 42","city":"Leipzig","country":"Deutschland","latitude":"51.3075863","longitude":"12.3787877"},{"identifier":"wagenplatz-groszzschocher","name":"Wagenplatz Gro\u00dfzschocher","rating":1,"submitter":"yetzt","address":"Lauerscher Weg 70","city":"Leipzig","country":"Deutschland","latitude":"51.291251","longitude":"12.332676"},{"identifier":"waldfrieden","name":"Waldfrieden","rating":1,"submitter":"sila","address":"Bornaische Stra\u00dfe 56","city":"Leipzig","country":"Deutschland","latitude":"51.306818","longitude":"12.380452"},{"identifier":"weltladen-connewitz","name":"Weltladen Connewitz","rating":4,"submitter":"wema","address":"Bornaische Str. 18","city":"Leipzig","country":"Deutschland","latitude":"51.3090469","longitude":"12.3753702"},{"identifier":"wrappstars","name":"WrappStars","rating":2,"submitter":"yetzt","address":"Industriestra\u00dfe 28","city":"Leipzig","country":"Deutschland","latitude":"51.325784754603","longitude":"12.3412084579468"},{"identifier":"zabayone","name":"Zabayone","rating":4,"submitter":"sila","address":"Gottschedstra\u00dfe 6","city":"Leipzig","country":"Deutschland","latitude":"51.340235","longitude":"12.369539"},{"identifier":"zest","name":"Zest","rating":5,"submitter":"yetzt","address":"Bornaische Stra\u00dfe 54","city":"Leipzig","country":"Deutschland","latitude":"51.306976","longitude":"12.380273"},{"identifier":"zu-spaet","name":"ZU SP\u00c4T","rating":5,"submitter":"blackstar","address":"Kippenbergstra\u00dfe 28","city":"Leipzig","country":"Deutschland","latitude":"51.3366359","longitude":"12.4061969"}]}