{"status":"ok","data":[{"identifier":"wagenplatz-groszzschocher","name":"Wagenplatz Groﬂzschocher","distance":0.98,"coords":{"lon":"12.332676","lat":"51.291251"},"verbose":{"rating":1,"submitter":"yetzt","address":"Lauerscher Weg 70","city":"Leipzig","country":"Deutschland"}},{"identifier":"ristorante-don-giovanni","name":"Ristorante Don Giovanni","distance":1.76,"coords":{"lon":"12.3270678520203","lat":"51.3152711177098"},"verbose":{"rating":3,"submitter":"phobos","address":"Schwartzestr. 1-3","city":"Leipzig","country":"Deutschland"}},{"identifier":"pizzeria-venezia","name":"Pizzeria Venezia","distance":2.16,"coords":{"lon":"12.3411522","lat":"51.3187843"},"verbose":{"rating":5,"submitter":"kleingeist","address":"Kˆnneritzstraﬂe 107","city":"Leipzig","country":"Deutschland"}},{"identifier":"mahl-zeit-vegetarisches-restaurant-und-cafe","name":"Mahl Zeit","distance":2.26,"coords":{"lon":"12.3399209976196","lat":"51.3198845408154"},"verbose":{"rating":5,"submitter":"neokarmapolizist","address":"Oeserstraﬂe 20","city":"Leipzig","country":"Deutschland"}},{"identifier":"vg-silo","name":"VG Silo","distance":2.44,"coords":{"lon":"12.339749","lat":"51.321564"},"verbose":{"rating":2,"submitter":"yetzt","address":"Brockhausstraﬂe 47","city":"Leipzig","country":"Deutschland"}},{"identifier":"karlhelga","name":"Karlhelga","distance":2.77,"coords":{"lon":"12.324326634407","lat":"51.3242728971489"},"verbose":{"rating":5,"submitter":"yetzt","address":"Klingenstraﬂe 16-18","city":"Leipzig","country":"Deutschland"}},{"identifier":"similde","name":"Similde","distance":2.79,"coords":{"lon":"12.371388","lat":"51.30776"},"verbose":{"rating":5,"submitter":"yetzt","address":"Simildenstraﬂe 9","city":"Leipzig","country":"Deutschland"}},{"identifier":"maza-pita-2","name":"Maza Pita","distance":2.8,"coords":{"lon":"12.344126701355","lat":"51.3242293173702"},"verbose":{"rating":5,"submitter":"neokarmapolizist","address":"Kˆnneritzstraﬂe 49","city":"Leipzig","country":"Deutschland"}},{"identifier":"annas","name":"Anna's","distance":2.81,"coords":{"lon":"12.3440837860107","lat":"51.324282954015"},"verbose":{"rating":4,"submitter":"yetzt","address":"Kˆnneritzstraﬂe 49","city":"Leipzig","country":"Deutschland"}},{"identifier":"lebensart-naturkost","name":"Lebensart Naturkost","distance":2.82,"coords":{"lon":"12.344126701355","lat":"51.3243902271165"},"verbose":{"rating":3,"submitter":"yetzt","address":"Kˆnneritzstraﬂe 49","city":"Leipzig","country":"Deutschland"}},{"identifier":"le-cupcakes","name":"L.E. Cupcakes","distance":2.84,"coords":{"lon":"12.3722266","lat":"51.3077451"},"verbose":{"rating":5,"submitter":"un3ven","address":"Simildenstr. 7","city":"Leipzig","country":"Deutschland"}},{"identifier":"conne-island","name":"Conne Island","distance":2.86,"coords":{"lon":"12.374111","lat":"51.303123"},"verbose":{"rating":3,"submitter":"yetzt","address":"Koburger Straﬂe 3","city":"Leipzig","country":"Deutschland"}},{"identifier":"bistro-1001-nacht","name":"Bistro 1001 Nacht","distance":2.87,"coords":{"lon":"12.341423034668","lat":"51.3253020383486"},"verbose":{"rating":3,"submitter":"yetzt","address":"Industriestraﬂe 27","city":"Leipzig","country":"Deutschland"}},{"identifier":"atacolypse-the-vegan-tex-mex-snack-bar","name":"ATACOLYPSE: The Vegan Tex-Mex Snack Bar","distance":2.88,"coords":{"lon":"12.3735252","lat":"51.3060094"},"verbose":{"rating":5,"submitter":"blackstar","address":"Wolfgang Heinze Str. 38","city":"Leipzig","country":"Deutschland"}},{"identifier":"lazy-dog","name":"Lazy Dog","distance":2.89,"coords":{"lon":"12.3738593","lat":"51.3057167"},"verbose":{"rating":5,"submitter":"yetzt","address":"Hermannstr. 2","city":"Leipzig","country":"Deutschland"}},{"identifier":"wrappstars","name":"WrappStars","distance":2.92,"coords":{"lon":"12.3412084579468","lat":"51.325784754603"},"verbose":{"rating":2,"submitter":"yetzt","address":"Industriestraﬂe 28","city":"Leipzig","country":"Deutschland"}},{"identifier":"foodcoop-plagwitz","name":"FoodCoop Plagwitz","distance":2.92,"coords":{"lon":"12.3267459869385","lat":"51.325865206818"},"verbose":{"rating":1,"submitter":"yetzt","address":"Gieﬂerstraﬂe 32a","city":"Leipzig","country":"Deutschland"}},{"identifier":"naturbackstube-","name":"Naturbackstube","distance":2.93,"coords":{"lon":"12.3728759","lat":"51.3089648"},"verbose":{"rating":false,"submitter":"naturbackstube","address":"Wolfgang-Heinze-Straﬂe 12","city":"Leipzig","country":"Deutschland"}},{"identifier":"natur-backstube-connewitz","name":"Naturbackstube [Connewitz]","distance":2.93,"coords":{"lon":"12.3729795","lat":"51.3088494"},"verbose":{"rating":5,"submitter":"blackstar","address":"Wolfgang-Heinze-Straﬂe 12","city":"Leipzig","country":"Deutschland"}},{"identifier":"deli","name":"deli","distance":2.93,"coords":{"lon":"12.3731969","lat":"51.308502"},"verbose":{"rating":5,"submitter":"blackstar","address":"Wolfgang Heinze Straﬂe 12a","city":"Leipzig","country":"Deutschland"}},{"identifier":"le-cygne","name":"Le Cygne","distance":2.94,"coords":{"lon":"12.3737","lat":"51.3077"},"verbose":{"rating":5,"submitter":"blackstar","address":"Herderstraﬂe 1","city":"Leipzig","country":"Deutschland"}},{"identifier":"atacolypse-2","name":"ATACOLYPSE 2","distance":2.94,"coords":{"lon":"12.3732993","lat":"51.30861"},"verbose":{"rating":5,"submitter":"blackstar","address":"Wolfgang-Heinze-Str. 15","city":"Leipzig","country":"Deutschland"}},{"identifier":"veggiefeldkueche-connewitz-kreuz","name":"Veggiefeldk¸che Connewitz Kreuz","distance":2.98,"coords":{"lon":"12.3734378814697","lat":"51.3094232054526"},"verbose":{"rating":false,"submitter":"veggiefeldkueche","address":"Bornaische Straﬂe ","city":"Leipzig","country":"Deutschland"}},{"identifier":"veggiefeldkueche","name":"Veggiefeldk¸che","distance":2.99,"coords":{"lon":"12.373116","lat":"51.3100335"},"verbose":{"rating":5,"submitter":"blackstar","address":"Connewitzer Kreuz ","city":"Leipzig","country":"Deutschland"}},{"identifier":"unanova-vegane-mode","name":"unanova -vegane mode","distance":2.99,"coords":{"lon":"12.3450481","lat":"51.3258276"},"verbose":{"rating":false,"submitter":"venusfusion","address":"kˆnneritzstr. 43","city":"leipzig","country":"Deutschland"}},{"identifier":"speisekammer","name":"Speisekammer","distance":3,"coords":{"lon":"12.3422062397003","lat":"51.3263412128693"},"verbose":{"rating":5,"submitter":"yetzt","address":"Holbeinstraﬂe 19","city":"Leipzig","country":"Deutschland"}},{"identifier":"vegan-fanatics","name":"Vegan Fanatics","distance":3.05,"coords":{"lon":"12.374296","lat":"51.309678"},"verbose":{"rating":false,"submitter":"blackstar","address":"Bornaische Straﬂe 3","city":"Leipzig","country":"Deutschland"}},{"identifier":"weltladen-connewitz","name":"Weltladen Connewitz","distance":3.09,"coords":{"lon":"12.3753702","lat":"51.3090469"},"verbose":{"rating":4,"submitter":"wema","address":"Bornaische Str. 18","city":"Leipzig","country":"Deutschland"}},{"identifier":"chinabrenner","name":"Chinabrenner","distance":3.1,"coords":{"lon":"12.3273146152496","lat":"51.327584839165"},"verbose":{"rating":false,"submitter":"elaerdbeer","address":"Gieﬂerstraﬂe 18","city":"Leipzig","country":"Deutschland"}},{"identifier":"vegan-leben","name":"Vegan Leben","distance":3.1,"coords":{"lon":"12.3633705","lat":"51.2794764"},"verbose":{"rating":false,"submitter":"veganleben","address":"Rathausstraﬂe 62","city":"Markkleeberg","country":"Deutschland"}},{"identifier":"umsonstladen-leipzig","name":"Umsonstladen Leipzig","distance":3.14,"coords":{"lon":"12.3276901245117","lat":"51.3279569148713"},"verbose":{"rating":5,"submitter":"yetzt","address":"Gieﬂerstraﬂe 16","city":"Leipzig","country":"Deutschland"}},{"identifier":"plaque","name":"Plaque","distance":3.15,"coords":{"lon":"12.328908","lat":"51.328189"},"verbose":{"rating":5,"submitter":"yetzt","address":"Industriestraﬂe 97","city":"Leipzig","country":"Deutschland"}},{"identifier":"bio-eisspezialitaeten","name":"Bio-Eisspezialit‰ten","distance":3.18,"coords":{"lon":"12.34566","lat":"51.327492"},"verbose":{"rating":4,"submitter":"neokarmapolizist","address":"Kˆnneritzstraﬂe 21","city":"Leipzig","country":"Deutschland"}},{"identifier":"hailong","name":"HAILONG","distance":3.18,"coords":{"lon":"12.3769688","lat":"51.3083604"},"verbose":{"rating":4,"submitter":"blackstar","address":"Bornaische Straﬂe 13","city":"Leipzig","country":"Deutschland"}},{"identifier":"al-bascha-bistro","name":"Al Bascha Bistro","distance":3.19,"coords":{"lon":"12.3772442","lat":"51.308089"},"verbose":{"rating":false,"submitter":"veggiefeldkueche","address":"Bornaische Straﬂe 24 ","city":"Leipzig","country":"Deutschland"}},{"identifier":"lichtwirtschaft","name":"","distance":3.2,"coords":{"lon":"12.377531","lat":"51.308025"},"verbose":{"rating":4,"submitter":"yetzt","address":" ","city":"","country":"Deutschland"}},{"identifier":"stoe-16","name":"Stˆ 16","distance":3.21,"coords":{"lon":"12.377575","lat":"51.308045"},"verbose":{"rating":5,"submitter":"yetzt","address":"Stˆckartstraﬂe 16","city":"Leipzig","country":"Deutschland"}},{"identifier":"brakers-frueh-back-spaet-shop","name":"fr¸h brakers sp‰t backshop","distance":3.25,"coords":{"lon":"12.37834","lat":"51.30772"},"verbose":{"rating":5,"submitter":"madlen","address":"bornaische straﬂe 40","city":"leipzig","country":"Deutschland"}},{"identifier":"cafe-rico","name":"CafÈ Rico","distance":3.25,"coords":{"lon":"12.3352432250977","lat":"51.329163849526"},"verbose":{"rating":false,"submitter":"neokarmapolizist","address":"Lauchst‰dter Straﬂe 22","city":"Leipzig","country":"Deutschland"}},{"identifier":"happy-hour","name":"Happy Hour","distance":3.26,"coords":{"lon":"12.3783337","lat":"51.3079817"},"verbose":{"rating":5,"submitter":"blackstar","address":"Bornaische Straﬂe 23","city":"Leipzig","country":"Deutschland"}},{"identifier":"bavarian-dueruem","name":"Bavarian D¸r¸m","distance":3.26,"coords":{"lon":"12.3785725","lat":"51.307695"},"verbose":{"rating":false,"submitter":"veggiefeldkueche","address":"Pfeffinger Straﬂe 18","city":"Leipzig","country":"Deutschland"}},{"identifier":"eisdiele-brakers-go","name":"Brakerís Go - Eisdiele","distance":3.27,"coords":{"lon":"12.37872","lat":"51.307724"},"verbose":{"rating":5,"submitter":"apple","address":"Bornaische Straﬂe 42","city":"Leipzig","country":"Deutschland"}},{"identifier":"vvasabi","name":"VVasabi","distance":3.27,"coords":{"lon":"12.3787877","lat":"51.3075863"},"verbose":{"rating":4,"submitter":"fieti","address":"Bornaische Straﬂe 42","city":"Leipzig","country":"Deutschland"}},{"identifier":"dead-romanoff-tattoos","name":"Dead Romanoff Tattoos","distance":3.28,"coords":{"lon":"12.3789203166962","lat":"51.3075603681698"},"verbose":{"rating":false,"submitter":"jockel","address":"Bornaische Str. 42","city":"Leipzig","country":"Deutschland"}},{"identifier":"volle-rolle","name":"Volle Rolle","distance":3.31,"coords":{"lon":"12.3371462","lat":"51.3295998"},"verbose":{"rating":5,"submitter":"blackstar","address":"Zschochersche Straﬂe 47","city":"Leipzig","country":"Deutschland"}},{"identifier":"restaurant-eden","name":"Restaurant Eden","distance":3.32,"coords":{"lon":"12.3731522","lat":"51.316498"},"verbose":{"rating":5,"submitter":"blackstar","address":"Karl-Liebknecht-Straﬂe 112","city":"Leipzig","country":"Deutschland"}},{"identifier":"zoro","name":"","distance":3.32,"coords":{"lon":"12.379789352417","lat":"51.3068074988825"},"verbose":{"rating":5,"submitter":"yetzt","address":" ","city":"","country":"Deutschland"}},{"identifier":"restaurant-eden-leipzig","name":"Restaurant Eden Leipzig","distance":3.32,"coords":{"lon":"12.3731522","lat":"51.316498"},"verbose":{"rating":false,"submitter":"pinkerella","address":"Karl-Liebknecht Strasse 112","city":"Leipzig","country":"Deutschland"}},{"identifier":"spiesser-sataybarde","name":"SPIESSER Sataybar.de","distance":3.33,"coords":{"lon":"12.37312","lat":"51.31666"},"verbose":{"rating":4,"submitter":"aydryll","address":"Karl-Liebknecht-Strasse 112","city":"Leipzig","country":"Deutschland"}},{"identifier":"nix-tonne","name":"NIX TONNE.","distance":3.33,"coords":{"lon":"12.3798508325409","lat":"51.3071049574921"},"verbose":{"rating":false,"submitter":"nixtonne","address":"Bornaische Str. 50","city":"Leipzig","country":"Deutschland"}},{"identifier":"symbiose-bio-bar-und-restaurant","name":"Symbiose - Bio Bar und Restaurant","distance":3.34,"coords":{"lon":"12.3731222","lat":"51.3166941"},"verbose":{"rating":5,"submitter":"naraesk","address":"Karl-Liebknecht-Straﬂe 112","city":"Leipzig","country":"Deutschland"}},{"identifier":"neueroeffnung-zum-01032013-vegan-leben-","name":"Vegan Leben","distance":3.36,"coords":{"lon":"12.368015","lat":"51.3210167"},"verbose":{"rating":5,"submitter":"veganleben","address":"Kurt Eisner Str. 11","city":"Leipzig","country":"Deutschland"}},{"identifier":"zest","name":"Zest","distance":3.36,"coords":{"lon":"12.380273","lat":"51.306976"},"verbose":{"rating":5,"submitter":"yetzt","address":"Bornaische Straﬂe 54","city":"Leipzig","country":"Deutschland"}},{"identifier":"natur-backstube","name":"Natur - Backstube [S¸dvorstadt]","distance":3.36,"coords":{"lon":"12.3732727","lat":"51.3169533"},"verbose":{"rating":4,"submitter":"paula","address":"Karl-Liebknecht-Straﬂe 108","city":"Leipzig","country":"Deutschland"}},{"identifier":"waldfrieden","name":"Waldfrieden","distance":3.37,"coords":{"lon":"12.380452","lat":"51.306818"},"verbose":{"rating":1,"submitter":"sila","address":"Bornaische Straﬂe 56","city":"Leipzig","country":"Deutschland"}},{"identifier":"suppentempel","name":"Suppentempel","distance":3.38,"coords":{"lon":"12.3372675","lat":"51.3302854"},"verbose":{"rating":false,"submitter":"suppentempel","address":"Zschochersche Str. 38","city":"Leipzig","country":"Deutschland"}},{"identifier":"vood-kitchen","name":"Vood-Kitchen","distance":3.38,"coords":{"lon":"12.3731569","lat":"51.3173003"},"verbose":{"rating":false,"submitter":"veggiefeldkueche","address":"Karl-Liebknecht-Straﬂe 104","city":"Leipzig","country":"Deutschland"}},{"identifier":"sublab","name":"sublab","distance":3.39,"coords":{"lon":"12.3308658599854","lat":"51.3303904166665"},"verbose":{"rating":5,"submitter":"hfb","address":"Karl-Heine-Straﬂe 92","city":"Leipzig","country":"Deutschland"}},{"identifier":"stern-des-suedens","name":"Stern des S¸dens","distance":3.4,"coords":{"lon":"12.373274","lat":"51.317531"},"verbose":{"rating":3,"submitter":"yetzt","address":"Karl-Liebknecht-Straﬂe 102","city":"Leipzig","country":"Deutschland"}},{"identifier":"biokiste","name":"Biokiste","distance":3.41,"coords":{"lon":"12.340321","lat":"51.330289"},"verbose":{"rating":5,"submitter":"mondamo","address":"Weiﬂenfelserstr 14","city":"Leipzig","country":"Deutschland"}},{"identifier":"karl-heinespaeti","name":"Karl-Heinesp‰ti","distance":3.42,"coords":{"lon":"12.3310482501984","lat":"51.3307188959965"},"verbose":{"rating":2,"submitter":"yetzt","address":"Karl-Heine-Straﬂe 72","city":"Leipzig","country":"Deutschland"}},{"identifier":"orient-shop-karli-97","name":"La Mia Pizza","distance":3.43,"coords":{"lon":"12.3732264","lat":"51.3181232"},"verbose":{"rating":5,"submitter":"lalibertad","address":"Karl-Liebknecht-Straﬂe 96","city":"Leipzig","country":"Deutschland"}},{"identifier":"shahia","name":"Shahia","distance":3.43,"coords":{"lon":"12.3731919","lat":"51.3181042"},"verbose":{"rating":5,"submitter":"naraesk","address":"Karl-Liebknecht-Straﬂe 96","city":"Leipzig","country":"Deutschland"}},{"identifier":"kostbar-naturkost","name":"Kostbar Naturkost","distance":3.44,"coords":{"lon":"12.3324912786484","lat":"51.3309179935266"},"verbose":{"rating":5,"submitter":"apple","address":"Karl-Heine-Straﬂe 77","city":"Leipzig","country":"Deutschland"}},{"identifier":"kombuese-68","name":"Komb¸se 68","distance":3.46,"coords":{"lon":"12.33164","lat":"51.3311"},"verbose":{"rating":4,"submitter":"kleingeist","address":"Karl-Heine-Straﬂe 68","city":"Leipzig","country":"Deutschland"}},{"identifier":"holy-soup-plagwitz","name":"HOLY SOUP [Plagwitz]","distance":3.5,"coords":{"lon":"12.3382199","lat":"51.331275"},"verbose":{"rating":5,"submitter":"blackstar","address":"Zschochersche Straﬂe 33 A","city":"Leipzig","country":"Deutschland"}},{"identifier":"suesz--salzig","name":"s¸ﬂ + salzig","distance":3.57,"coords":{"lon":"12.3329472541809","lat":"51.3320864173033"},"verbose":{"rating":4,"submitter":"onestar86","address":"Merseburger Str 44","city":"Leipzig","country":"Deutschland"}},{"identifier":"suesz-und-salzig","name":"s¸ﬂ und salzig","distance":3.6,"coords":{"lon":"12.3328413","lat":"51.3323174"},"verbose":{"rating":4,"submitter":"kinggeorge","address":"Merseburger Str. 44","city":"Leipzig","country":"Deutschland"}},{"identifier":"cafe-puschkin","name":"CafÈ Puschkin","distance":3.62,"coords":{"lon":"12.373386","lat":"51.32072"},"verbose":{"rating":2,"submitter":"yetzt","address":"Karl-Liebknecht-Straﬂe 47","city":"Leipzig","country":"Deutschland"}},{"identifier":"vreload","name":"Vleischerei","distance":3.63,"coords":{"lon":"12.3390036821365","lat":"51.3324411394456"},"verbose":{"rating":5,"submitter":"schneck","address":"Zschochersche Straﬂe 23","city":"Leipzig","country":"Deutschland"}},{"identifier":"holy-soup","name":"HOLY SOUP [S¸dvorstadt]","distance":3.77,"coords":{"lon":"12.3736899","lat":"51.3225922"},"verbose":{"rating":5,"submitter":"blackstar","address":"Karl-Liebknecht-Straﬂe 85","city":"Leipzig","country":"Deutschland"}},{"identifier":"shady","name":"shady","distance":3.82,"coords":{"lon":"12.370165","lat":"51.325468"},"verbose":{"rating":2,"submitter":"phobos","address":"Kˆrnerstraﬂe 2","city":"Leipzig","country":"Deutschland"}},{"identifier":"viener-cafe","name":"Viener CafÈ","distance":3.92,"coords":{"lon":"12.3332048","lat":"51.3352443"},"verbose":{"rating":5,"submitter":"hfb","address":"Josephstraﬂe 12","city":"Leipzig","country":"Deutschland"}},{"identifier":"istanbul-burger-und-kebap-haus","name":"Istanbul Burger & Kebap Haus","distance":3.93,"coords":{"lon":"12.3737447","lat":"51.3246209"},"verbose":{"rating":3,"submitter":"blackstar","address":"Karl-Liebknecht-Straﬂe 65","city":"Leipzig","country":"Deutschland"}},{"identifier":"el-amir","name":"El Amir","distance":3.97,"coords":{"lon":"12.373756","lat":"51.325211"},"verbose":{"rating":4,"submitter":"yetzt","address":"Karl-Liebknecht-Straﬂe 59","city":"Leipzig","country":"Deutschland"}},{"identifier":"die-nato","name":"die naTo","distance":3.97,"coords":{"lon":"12.373534","lat":"51.325247"},"verbose":{"rating":4,"submitter":"yetzt","address":"Karl-Liebknecht-Straﬂe 46","city":"Leipzig","country":"Deutschland"}},{"identifier":"safran-indisches-restaurant","name":"Safran - Indisches Restaurant","distance":3.99,"coords":{"lon":"12.3739384","lat":"51.3252642"},"verbose":{"rating":4,"submitter":"lumpi","address":"Kˆrnerstr. 27","city":"Leipzig","country":"Deutschland"}},{"identifier":"b12","name":"B12","distance":4.02,"coords":{"lon":"12.372217","lat":"51.326747"},"verbose":{"rating":3,"submitter":"yetzt","address":"Braustraﬂe 20","city":"Leipzig","country":"Deutschland"}},{"identifier":"skorbut","name":"skorbut","distance":4.07,"coords":{"lon":"12.33621","lat":"51.33651"},"verbose":{"rating":5,"submitter":"hfb","address":"Dreilindenstraﬂe 1","city":"Leipzig","country":"Deutschland"}},{"identifier":"naturkostkontor-schreiter","name":"Naturkostkontor Schreiter","distance":4.14,"coords":{"lon":"12.3730731010437","lat":"51.3277021606595"},"verbose":{"rating":3,"submitter":"schneck","address":"Karl-Liebknecht-Straﬂe 30-32","city":"Leipzig","country":"Deutschland"}},{"identifier":"lebensgarten","name":"Lebensgarten","distance":4.15,"coords":{"lon":"12.377494","lat":"51.325087"},"verbose":{"rating":5,"submitter":"yetzt","address":"Kˆrnerstraﬂe 41","city":"Leipzig","country":"Deutschland"}},{"identifier":"kowalski","name":"Kowalski","distance":4.17,"coords":{"lon":"12.3659265","lat":"51.3313918"},"verbose":{"rating":4,"submitter":"rabauki","address":"Ferdinand-Rhode-Straﬂe 12","city":"Leipzig","country":"Deutschland"}},{"identifier":"mio-restaurante","name":"Mio Restaurante","distance":4.25,"coords":{"lon":"12.3665102","lat":"51.3320043"},"verbose":{"rating":4,"submitter":"madmary","address":"Beethovenstraﬂe 21","city":"Leipzig","country":"Germany"}},{"identifier":"coffito-coffeeanawrap","name":"Coffito - Coffee¥n¥Wrap","distance":4.26,"coords":{"lon":"12.3654595","lat":"51.3325914"},"verbose":{"rating":false,"submitter":"muellersihre","address":"Ferdinand-Rhode-Str. 3B","city":"Leipzig","country":"Deutschland"}},{"identifier":"hausmark-schaenke","name":"Hausmark Sch‰nke","distance":4.3,"coords":{"lon":"12.3274607","lat":"51.3384746"},"verbose":{"rating":5,"submitter":"neokarmapolizist","address":"Georg-Schwarz-Straﬂe 10","city":"Leipzig","country":"Deutschland"}},{"identifier":"pizza-lab","name":"Pizza LAB","distance":4.31,"coords":{"lon":"12.3274738","lat":"51.3385646"},"verbose":{"rating":5,"submitter":"pizzalab","address":"Georg-Schwarz-Str 10","city":"LEIPZIG","country":"Deutschland"}},{"identifier":"brakers-go-2-eisdiele","name":"Brakerís Go 2 - Eisdiele","distance":4.51,"coords":{"lon":"12.3964754","lat":"51.3091388"},"verbose":{"rating":false,"submitter":"neokarmapolizist","address":"Zwickauer Str. 71","city":"Leipzig","country":"Deutschland"}},{"identifier":"soupbar-summarum","name":"Soupbar Summarum","distance":4.54,"coords":{"lon":"12.37281","lat":"51.33244"},"verbose":{"rating":false,"submitter":"naraesk","address":"M¸nzgasse 16","city":"Leipzig","country":"Deutschland"}},{"identifier":"reformhaus-blicke","name":"Reformhaus Blicke","distance":4.67,"coords":{"lon":"12.3635163903236","lat":"51.3375125275138"},"verbose":{"rating":3,"submitter":"hfb","address":"Friedrich-Ebert-Straﬂe 33","city":"Leipzig","country":"Deutschland"}},{"identifier":"klee-naturkost","name":"Klee Naturkost","distance":4.7,"coords":{"lon":"12.3637390136719","lat":"51.337690147196"},"verbose":{"rating":5,"submitter":"yetzt","address":"Friedrich-Ebert-Straﬂe 33","city":"Leipzig","country":"Deutschland"}},{"identifier":"libelle","name":"Libelle","distance":4.79,"coords":{"lon":"12.365694","lat":"51.337982"},"verbose":{"rating":5,"submitter":"yetzt","address":"Kolonnadenstraﬂe 19","city":"Leipzig","country":"Deutschland"}},{"identifier":"macis-restaurantcafebiosupermarkt","name":"Macis Restaurant\/CafÈ\/Biosupermarkt","distance":4.97,"coords":{"lon":"12.3714486","lat":"51.3377103"},"verbose":{"rating":4,"submitter":"morningsun","address":"Markgrafenstraﬂe 10","city":"Leipzig","country":"Deutschland"}},{"identifier":"biokarawane","name":"Biokarawane","distance":5,"coords":{"lon":"12.3786633","lat":"51.3348632"},"verbose":{"rating":3,"submitter":"naraesk","address":"Gr¸newaldstraﬂe 5","city":"Leipzig","country":"Deutschland"}},{"identifier":"hit","name":"HIT","distance":5.06,"coords":{"lon":"12.3993286","lat":"51.3191722"},"verbose":{"rating":3,"submitter":"animalliberation","address":"Straﬂe des 18. Oktober 44","city":"Leipzig","country":"Deutschland"}},{"identifier":"manoa-frozen-yoghurt","name":"Manoa Frozen Yoghurt","distance":5.11,"coords":{"lon":"12.37458","lat":"51.3379399"},"verbose":{"rating":4,"submitter":"ballspielvegan1909","address":"Petersstraﬂe 36-44","city":"Leipzig","country":"Deutschland"}},{"identifier":"zabayone","name":"Zabayone","distance":5.14,"coords":{"lon":"12.369539","lat":"51.340235"},"verbose":{"rating":4,"submitter":"sila","address":"Gottschedstraﬂe 6","city":"Leipzig","country":"Deutschland"}},{"identifier":"sinfonie","name":"Sinfonie","distance":5.15,"coords":{"lon":"12.3672258853912","lat":"51.3411217584071"},"verbose":{"rating":2,"submitter":"phobos","address":"Gottschedstraﬂe 15","city":"Leipzig","country":"Deutschland"}},{"identifier":"bio-mare","name":"Bio Mare","distance":5.16,"coords":{"lon":"12.371358","lat":"51.339762"},"verbose":{"rating":4,"submitter":"yetzt","address":"Simildenstraﬂe 20","city":"Leipzig","country":"Deutschland"}},{"identifier":"baecker-drescher","name":"B‰cker Drescher","distance":5.18,"coords":{"lon":"12.359917","lat":"51.343496"},"verbose":{"rating":3,"submitter":"phobos","address":"Gustav-Adolf-Straﬂe 42","city":"Leipzig","country":"Deutschland"}},{"identifier":"la-tortita-verwegen-vegane-sueszspeisen","name":"La Tortita - verwegen vegane S¸ﬂspeisen","distance":5.21,"coords":{"lon":"12.3730747","lat":"51.3396955"},"verbose":{"rating":5,"submitter":"latortita","address":"Hildegardstraﬂe 49","city":"Leipzig","country":"Deutschland"}},{"identifier":"asia-supermarkt-am-neumarkt","name":"Asia Supermarkt am Neumarkt","distance":5.21,"coords":{"lon":"12.376281","lat":"51.338346"},"verbose":{"rating":4,"submitter":"yetzt","address":"Neumarkt 26","city":"Leipzig","country":"Deutschland"}},{"identifier":"mensa-am-park","name":"Mensa am Park","distance":5.21,"coords":{"lon":"12.3782444000244","lat":"51.3374700775613"},"verbose":{"rating":4,"submitter":"hfb","address":"Universit‰tsstraﬂe 5","city":"Leipzig","country":"Deutschland"}},{"identifier":"natur-und-fein","name":"Natur und Fein","distance":5.23,"coords":{"lon":"12.357859","lat":"51.344406"},"verbose":{"rating":4,"submitter":"schneck","address":"Waldstraﬂe 23","city":"Leipzig","country":"Deutschland"}},{"identifier":"maza-pita","name":"Tasty Fresh","distance":5.24,"coords":{"lon":"12.3773860931396","lat":"51.3382202094568"},"verbose":{"rating":4,"submitter":"hfb","address":"Neumarkt 9","city":"Leipzig","country":"Deutschland"}},{"identifier":"mokkaflip-kaffeebar","name":"Mokkaflip - Kaffeebar","distance":5.27,"coords":{"lon":"12.377596","lat":"51.338383"},"verbose":{"rating":5,"submitter":"spule","address":"Universit‰tsstraﬂe 16","city":"Leipzig","country":"Deutschland"}},{"identifier":"la-pita","name":"La Pita","distance":5.28,"coords":{"lon":"12.3747682571411","lat":"51.3397142926974"},"verbose":{"rating":4,"submitter":"phobos","address":"Markt 17","city":"Leipzig","country":"Deutschland"}},{"identifier":"umaii","name":"Umaii","distance":5.3,"coords":{"lon":"12.37294","lat":"51.34065"},"verbose":{"rating":false,"submitter":"klauskroete","address":"Klostergasse 7-9","city":"Leipzig","country":"Deutschland"}},{"identifier":"schnitzelculture","name":"Schnitzelculture","distance":5.35,"coords":{"lon":"12.372074","lat":"51.341503"},"verbose":{"rating":1,"submitter":"schnitzelmeister","address":"Groﬂe Fleischergasse 21","city":"Leipzig","country":"Deutschland"}},{"identifier":"mr-moto-sushi-bar","name":"Mr. Moto Sushi Bar","distance":5.35,"coords":{"lon":"12.372074","lat":"51.341503"},"verbose":{"rating":3,"submitter":"apple","address":"Grosse Fleischergasse 21","city":"Leipzig","country":"Deutschland"}},{"identifier":"vapiano-leipzig","name":"Vapiano Leipzig","distance":5.41,"coords":{"lon":"12.37961769104","lat":"51.3390172460587"},"verbose":{"rating":false,"submitter":"pattchel","address":"Augustusplatz 11","city":"Leipzig","country":"Deutschland"}},{"identifier":"eiscafe-san-remo","name":"EiscafÈ San Remo","distance":5.42,"coords":{"lon":"12.377952","lat":"51.339948"},"verbose":{"rating":2,"submitter":"yetzt","address":"Nikolaistraﬂe 1","city":"Leipzig","country":"Deutschland"}},{"identifier":"india-gate","name":"India Gate","distance":5.5,"coords":{"lon":"12.3781156539917","lat":"51.3407196297572"},"verbose":{"rating":2,"submitter":"phobos","address":"Nikolaistraﬂe 10","city":"Leipzig","country":"Deutschland"}},{"identifier":"curry-und-co-leipzig","name":"Curry & Co Leipzig","distance":5.55,"coords":{"lon":"12.373438","lat":"51.3430893"},"verbose":{"rating":4,"submitter":"naraesk","address":"Br¸hl 4","city":"Leipzig","country":"Deutschland"}},{"identifier":"naturparadies-strohsackpassage","name":"Naturparadies Strohsackpassage","distance":5.57,"coords":{"lon":"12.3789525032043","lat":"51.341141864747"},"verbose":{"rating":3,"submitter":"yetzt","address":"Nikolaistraﬂe 6-10","city":"Leipzig","country":"Deutschland"}},{"identifier":"mekong","name":"Mekong","distance":5.66,"coords":{"lon":"12.379609","lat":"51.34181"},"verbose":{"rating":3,"submitter":"yetzt","address":"Ritterstraﬂe 44-48","city":"Leipzig","country":"Deutschland"}},{"identifier":"goodies-leipzig","name":"Goodies Leipzig","distance":5.67,"coords":{"lon":"12.3781126527786","lat":"51.3425472306267"},"verbose":{"rating":5,"submitter":"goodies","address":"Nikolaistrasse 53","city":"Leipzig","country":"Germany"}},{"identifier":"bagelbrothers","name":"Bagelbrothers","distance":5.71,"coords":{"lon":"12.3785018920898","lat":"51.3427838527319"},"verbose":{"rating":2,"submitter":"nokrauts","address":"Nikolaistraﬂe 42","city":"Leipzig","country":"Deutschland"}},{"identifier":"reformhaus-hauptbahnhof","name":"Reformhaus (Hauptbahnhof)","distance":5.96,"coords":{"lon":"12.3816347122192","lat":"51.3441644175143"},"verbose":{"rating":4,"submitter":"cb0","address":"Willy-Brandt-Platz 5","city":"Leipzig","country":"Deutschland"}},{"identifier":"duo-sandwiches-oeko-inkl-veggie","name":"DUO sandwichesandcoffee","distance":5.97,"coords":{"lon":"12.3799180984497","lat":"51.345073155591"},"verbose":{"rating":2,"submitter":"mondamo","address":"Hauptbahnhof Querbahnsteig ","city":"Leipzig","country":"Deutschland"}},{"identifier":"asia-hung-hauptbahnhof","name":"Asia Hung (Hauptbahnhof)","distance":5.97,"coords":{"lon":"12.3812162876129","lat":"51.3445088822138"},"verbose":{"rating":2,"submitter":"neokarmapolizist","address":"Willy-Brandt-Platz 7","city":"Leipzig","country":"Deutschland"}},{"identifier":"lukas-baecker","name":"Lukas B‰cker","distance":6.09,"coords":{"lon":"12.3821067810059","lat":"51.3454645230242"},"verbose":{"rating":false,"submitter":"tiptob","address":"Hauptbahnhof ","city":"Leipzig","country":"Deutschland"}},{"identifier":"atari","name":"Atari","distance":6.45,"coords":{"lon":"12.4059671","lat":"51.3360184"},"verbose":{"rating":4,"submitter":"muellersihre","address":"Kippenbergstraﬂe 20","city":"Leipzig","country":"Deutschland"}},{"identifier":"zu-spaet","name":"ZU SPƒT","distance":6.51,"coords":{"lon":"12.4061969","lat":"51.3366359"},"verbose":{"rating":5,"submitter":"blackstar","address":"Kippenbergstraﬂe 28","city":"Leipzig","country":"Deutschland"}},{"identifier":"naturkostladen-gohlis","name":"Naturkostladen Gohlis","distance":6.69,"coords":{"lon":"12.370594","lat":"51.355347"},"verbose":{"rating":3,"submitter":"yetzt","address":"Gohliser Straﬂe 18","city":"Leipzig","country":"Deutschland"}},{"identifier":"naehmaschine-und-regenschirm","name":"N‰hmaschine und Regenschirm","distance":7.39,"coords":{"lon":"12.4085422","lat":"51.3468362"},"verbose":{"rating":5,"submitter":"hfb","address":"Mariannenstraﬂe 89","city":"Leipzig","country":"Deutschland"}},{"identifier":"ritag-naturprodukte-bioladen-gohlis","name":"RITAG Naturprodukte Bioladen Gohlis","distance":7.55,"coords":{"lon":"12.362176","lat":"51.365334"},"verbose":{"rating":0,"submitter":"mondamo","address":"Breitenfelderstr. 34","city":"Leipzig","country":"Deutschland"}},{"identifier":"naturaum","name":"NatuRaum","distance":8.85,"coords":{"lon":"12.314543","lat":"51.378601"},"verbose":{"rating":5,"submitter":"yetzt","address":"Pittlerstraﬂe 26","city":"Leipzig","country":"Deutschland"}},{"identifier":"meine-bioproduktede","name":"meine-bioprodukte.de","distance":11.6,"coords":{"lon":"12.48938","lat":"51.33677"},"verbose":{"rating":false,"submitter":"line1910","address":"Christian-Schmid-Straﬂe 3","city":"Leipzig","country":"Deutschland"}},{"identifier":"eisbaer-eiskaffee","name":"Eisb‰r Eiskaffee","distance":14.31,"coords":{"lon":"12.140953","lat":"51.254926"},"verbose":{"rating":false,"submitter":"yetzt","address":"Schloﬂstraﬂe 17","city":"L¸tzen","country":"Deutschland"}},{"identifier":"annes-bioladen","name":"Annes Bioladen","distance":14.36,"coords":{"lon":"12.4926567077637","lat":"51.3819864275483"},"verbose":{"rating":false,"submitter":"schneck","address":"Graﬂdorfer Straﬂe 13","city":"Taucha","country":"Deutschland"}}]}